,ID,city,lat,lng,temp,humidity,cloudiness,wind speed,max temp
0,6201424,Mataura,-46.19,168.86,77.65,58,64,0.58,77.65
1,1819729,Hong Kong,22.29,114.16,61.66,77,40,11.41,63.0
2,1507390,Dikson,73.51,80.55,-5.84,95,100,5.39,-5.84
3,2075265,Busselton,-33.65,115.33,90.73,24,97,5.23,93.0
4,4030556,Rikitea,-23.12,-134.97,79.11,77,0,10.22,79.11
5,2630299,Hofn,64.25,-15.21,38.97,86,82,16.04,38.97
6,6620339,Karratha,-20.74,116.85,85.62,71,0,9.53,85.62
7,5848280,Kapaa,22.08,-159.32,76.1,69,40,4.7,78.8
8,494884,Shenkursk,62.11,42.9,2.12,96,100,6.46,2.12
9,5282297,Bethel,41.37,-73.41,40.89,93,90,6.93,45.0
10,1512101,Agirish,61.92,63.02,-7.78,98,59,2.57,-7.78
11,6170031,Tuktoyaktuk,69.45,-133.04,-13.0,69,90,24.16,-13.0
12,6063191,Mackenzie,55.3,-123.17,30.2,86,1,6.93,30.2
13,3361934,Saldanha,-33.01,17.94,59.0,93,83,3.36,59.0
14,2034615,Tahe,52.33,124.73,5.02,79,0,1.63,5.02
15,2297810,Mumford,5.26,-0.76,72.14,90,95,2.55,72.14
16,2123628,Magadan,59.57,150.8,2.26,78,100,18.34,2.26
17,5106841,Albany,42.6,-73.97,35.51,93,90,8.05,39.0
18,60019,Eyl,7.98,49.82,78.76,80,9,20.2,78.76
19,1006984,East London,-33.02,27.91,69.8,88,75,11.41,69.8
20,3652764,Puerto Ayora,-0.74,-90.35,75.99,31,54,1.99,75.99
21,2181625,Te Anau,-45.42,167.72,63.37,79,100,7.38,63.37
22,4034551,Faanui,-16.48,-151.75,83.16,72,62,8.79,83.16
23,546105,Nikolskoye,59.7,30.79,28.89,86,100,4.47,30.99
24,3515120,Tres Picos,15.87,-93.53,65.14,89,0,2.8,65.14
25,525426,Sobolevo,54.43,31.9,28.29,87,0,8.43,28.29
26,472761,Volgodonsk,47.51,42.15,34.18,97,100,15.95,34.18
27,935214,Saint-Pierre,-21.34,55.48,74.37,78,75,8.05,78.8
28,964432,Port Alfred,-33.59,26.89,66.99,97,80,8.01,66.99
29,5847486,Kailua,21.4,-157.74,76.42,78,75,8.05,80.6
30,1045114,Inhambane,-23.86,35.38,77.94,80,22,9.93,77.94
31,1491230,Sovetskiy,61.36,63.58,-5.19,98,91,3.44,-5.19
32,777019,Vardo,70.37,31.11,17.6,85,100,26.4,17.6
33,1634614,Nabire,-3.37,135.48,88.45,61,52,5.93,88.45
34,1282256,Hithadhoo,-0.6,73.08,82.49,77,100,9.75,82.49
35,3874787,Punta Arenas,-53.15,-70.92,48.09,70,75,20.8,48.2
36,3115824,Muros,42.78,-9.06,43.65,93,75,5.82,50.0
37,1814093,Dali,25.7,100.18,48.34,40,0,2.66,48.34
38,1265022,Lathi,21.72,71.38,66.9,26,0,7.43,66.9
39,2017155,Saskylakh,71.92,114.08,-20.51,93,99,16.46,-20.51
40,4032243,Vaini,-21.2,-175.2,80.6,88,90,10.29,80.6
41,2092164,Lorengau,-2.02,147.27,84.22,71,85,6.04,84.22
42,5601933,Nampa,43.54,-116.56,41.63,100,75,4.7,43.0
43,3369157,Cape Town,-33.93,18.42,59.5,82,40,5.82,62.01
44,3833367,Ushuaia,-54.8,-68.3,44.6,81,75,26.4,44.6
45,158024,Kibakwe,-6.72,36.37,66.61,96,100,0.94,66.61
46,1735106,George Town,5.41,100.34,86.83,58,20,10.29,87.8
47,1791464,Wenling,28.37,121.36,50.32,95,100,1.99,52.0
48,556268,Ostrovnoy,68.05,39.51,1.87,98,100,10.38,1.87
49,1633419,Padang,-0.95,100.35,77.05,87,93,1.16,77.05
50,3899539,Antofagasta,-23.65,-70.4,71.82,83,75,3.36,72.0
51,5983720,Iqaluit,63.75,-68.51,-29.09,66,20,14.99,-29.0
52,2074865,Carnarvon,-24.87,113.63,86.0,58,13,18.34,86.0
53,692118,Svatove,49.41,38.15,33.28,90,100,14.05,33.28
54,6185377,Yellowknife,62.46,-114.35,10.4,85,90,3.36,10.4
55,766307,Lidzbark Warminski,54.13,20.58,35.78,87,100,9.17,35.78
56,964712,Plettenberg Bay,-34.05,23.37,64.22,87,100,17.16,64.22
57,2094342,Kavieng,-2.57,150.8,84.87,72,48,11.7,84.87
58,2618795,Klaksvik,62.23,-6.59,44.6,93,100,13.87,44.6
59,2206939,Bluff,-46.6,168.33,66.49,52,57,8.52,66.49
60,1214488,Meulaboh,4.14,96.13,81.23,79,100,3.94,81.23
61,4035715,Avarua,-21.21,-159.78,82.4,83,100,11.41,82.4
62,3902377,Trinidad,-14.83,-64.9,78.62,82,32,3.33,78.62
63,686090,Asau,46.43,26.4,24.62,85,25,3.36,28.99
64,2140558,Koumac,-20.57,164.28,83.79,58,100,4.68,83.79
65,2020584,Magistralnyy,56.17,107.45,16.47,90,100,6.31,16.47
66,3347019,Mossamedes,-15.2,12.15,74.68,74,69,12.53,74.68
67,1528796,At-Bashi,41.17,75.81,-2.97,68,28,3.36,-2.97
68,3466704,Castro,-24.79,-50.01,61.63,93,0,2.84,61.63
69,1185199,Kaliganj,23.41,89.14,63.57,43,0,5.35,63.57
70,3471451,Arraial do Cabo,-22.97,-42.03,75.16,82,0,6.76,75.16
71,1218436,Sayat,38.78,63.88,23.0,100,0,4.7,23.0
72,1855612,Nara,34.69,135.8,49.78,66,75,8.05,55.0
73,1607280,Prachin Buri,14.05,101.37,89.01,60,96,6.67,89.01
74,1081790,Amboasary,-25.03,46.38,75.2,73,20,11.41,75.2
75,1863997,Fukuecho,32.69,128.84,54.63,71,75,16.11,55.4
76,186180,Moyale,3.52,39.06,74.25,67,100,4.5,74.25
77,554894,Izberbash,42.57,47.86,33.49,69,0,11.18,33.8
78,1735106,George Town,5.41,100.34,86.83,58,20,10.29,87.8
79,3393536,Olinda,-8.01,-34.86,82.4,78,40,4.7,82.4
80,921786,Mitsamiouli,-11.38,43.28,76.95,87,100,1.88,76.95
81,1235846,Matara,5.95,80.54,78.03,72,87,6.2,78.03
82,564241,Dukhovnitskoye,52.48,48.21,24.31,84,92,20.13,24.31
83,6089245,Norman Wells,65.28,-126.83,-14.8,68,20,9.17,-14.8
84,2126710,Beringovskiy,63.05,179.32,14.74,85,100,5.86,14.74
85,5880054,Barrow,71.29,-156.79,-20.2,75,40,9.17,-20.2
86,2015306,Tiksi,71.69,128.87,-28.1,67,0,5.19,-28.1
87,4031574,Provideniya,64.38,-173.3,-5.44,69,0,3.4,-5.44
88,4333811,Morgan City,29.7,-91.21,52.66,81,90,3.42,55.0
89,3526756,Isla Mujeres,21.23,-86.73,71.28,83,20,6.93,71.6
90,5866583,Kodiak,57.79,-152.41,17.6,61,90,20.8,17.6
91,1337619,Ugoofaaru,5.67,73.0,82.18,66,100,5.44,82.18
92,5546220,Saint George,37.1,-113.58,43.52,54,1,4.7,48.99
93,2094027,Kieta,-6.22,155.63,84.7,72,17,8.59,84.7
94,2396518,Port-Gentil,-0.72,8.78,83.1,79,2,11.14,83.1
95,6255012,Flinders,-34.58,150.86,89.96,19,40,10.29,100.4
96,2738785,Guarda,40.54,-7.27,33.17,93,0,4.0,35.01
97,3418910,Upernavik,72.79,-56.15,-14.24,94,100,7.61,-14.24
98,107304,Buraidah,26.33,43.98,37.4,100,0,10.29,37.4
99,232371,Kamwenge,0.19,30.45,66.25,62,100,2.89,66.25
100,986717,Kruisfontein,-34.0,24.73,64.71,87,89,22.73,64.71
101,3353540,Rehoboth,-23.32,17.08,65.08,26,0,11.34,65.08
102,1635164,Mlonggo,-6.53,110.7,84.02,71,4,9.55,84.02
103,4791259,Virginia Beach,36.85,-75.98,44.73,93,1,10.51,48.2
104,933995,Souillac,-20.52,57.52,78.4,83,75,13.87,80.01
105,1498087,Nadym,65.53,72.52,-8.72,100,84,3.83,-8.72
106,3388456,Sao Jose da Coroa Grande,-8.9,-35.15,81.54,84,40,15.19,81.54
107,2155415,New Norfolk,-42.78,147.06,66.72,35,99,20.8,71.6
108,301101,Serik,36.92,31.1,39.2,64,41,9.17,39.2
109,2381972,Adrar,20.5,-10.07,73.99,23,100,10.58,73.99
110,3372707,Ribeira Grande,38.52,-28.7,54.21,74,99,5.59,54.21
111,2015913,Suntar,62.14,117.63,7.9,94,100,8.12,7.9
112,1651810,Airai,-8.93,125.41,82.2,63,48,3.29,82.2
113,321572,Belen,36.49,36.22,42.8,72,10,4.7,42.8
114,1626932,Singaraja,-8.11,115.09,84.0,67,64,3.51,84.0
115,5855927,Hilo,19.73,-155.09,70.75,57,75,4.7,80.6
116,2963295,Killybegs,54.63,-8.45,45.0,93,100,8.01,45.0
117,1835848,Seoul,37.57,126.98,46.62,45,1,1.12,50.0
118,3985168,San Patricio,19.22,-104.7,77.38,70,100,7.54,77.38
119,3932145,Pisco,-13.7,-76.22,72.72,83,90,16.11,73.4
120,6137462,Saint-Augustin,51.23,-58.65,14.79,79,40,10.8,14.79
121,2112539,Iwaki,37.05,140.88,43.88,41,75,6.93,48.99
122,3382226,Camopi,3.17,-52.32,72.55,99,100,2.19,72.55
123,2022572,Khatanga,71.97,102.5,-23.94,96,22,2.64,-23.94
124,3470137,Belmonte,-15.86,-38.88,80.6,83,75,10.29,80.6
125,778707,Mehamn,71.04,27.85,18.21,76,100,20.45,18.21
126,3906478,Reyes,-14.32,-67.38,73.08,92,47,1.1,73.08
127,372884,Kapoeta,4.77,33.59,74.89,26,97,2.91,74.89
128,3883457,Lebu,-37.62,-73.65,61.23,85,0,7.78,61.23
129,1337613,Kulhudhuffushi,6.62,73.07,82.44,65,100,5.59,82.44
130,4509177,Columbus,39.96,-83.0,32.54,83,90,13.87,34.0
131,1852357,Shimoda,34.67,138.95,39.47,87,75,19.46,42.8
132,5905393,Bonavista,48.65,-53.11,19.0,81,53,7.0,19.0
133,5962442,Goderich,43.75,-81.72,33.03,93,100,3.0,34.0
134,1641977,Kalianget,-7.05,113.93,85.71,68,15,6.8,85.71
135,3395473,Papara,-3.98,-38.73,84.34,74,20,9.17,86.0
136,110690,Faya,18.39,42.45,43.66,45,20,8.05,44.6
137,904241,Mungwi,-10.17,31.37,64.38,96,100,0.96,64.38
138,2071860,Esperance,-33.87,121.9,82.4,42,95,9.17,82.4
139,6050066,La Ronge,55.1,-105.28,23.0,92,90,5.82,23.0
140,1855540,Naze,28.37,129.48,69.03,94,75,14.99,69.8
141,3920244,Chulumani,-16.41,-67.53,56.79,92,33,1.16,56.79
142,2123814,Leningradskiy,69.38,178.42,-12.55,96,98,4.12,-12.55
143,3424607,Tasiilaq,65.61,-37.64,28.4,79,100,31.09,28.4
144,2070998,Geraldton,-28.77,114.6,82.4,54,15,12.75,82.4
145,5122534,Jamestown,42.1,-79.24,32.86,97,90,9.17,34.0
146,3374333,Praia,14.92,-23.51,78.8,41,75,14.99,78.8
147,1015776,Bredasdorp,-34.53,20.04,58.14,87,68,13.87,59.0
148,1651103,Atambua,-9.11,124.89,84.45,68,0,5.91,84.45
149,2377457,Nouadhibou,20.93,-17.03,64.4,63,100,23.04,64.4
150,934322,Mahebourg,-20.41,57.7,78.39,83,75,13.87,80.01
151,5919850,Chapais,49.78,-74.85,23.0,85,90,9.17,23.0
152,1337617,Muli,2.92,73.57,81.16,81,100,16.53,81.16
153,1106677,Bambous Virieux,-20.34,57.76,78.46,83,75,13.87,80.01
154,3448903,Sao Joao da Barra,-21.64,-41.05,73.27,90,100,5.39,73.27
155,2180815,Tuatapere,-46.13,167.68,65.64,51,98,4.76,65.64
156,1517060,Zaysan,47.47,84.87,23.81,97,100,7.14,23.81
157,5855051,'Ewa Beach,21.32,-158.01,76.64,78,75,8.05,80.6
158,2644210,Liverpool,53.41,-2.98,43.81,100,90,9.17,46.0
159,2381334,Atar,20.52,-13.05,70.45,24,100,9.01,70.45
160,4020109,Atuona,-9.8,-139.03,80.74,77,74,13.8,80.74
161,2126123,Chokurdakh,70.63,147.92,-22.23,86,100,5.99,-22.23
162,3670218,San Andres,12.58,-81.7,80.6,69,20,10.29,80.6
163,4031637,Lavrentiya,65.58,-171.0,-13.47,77,0,3.15,-13.47
164,2112309,Katsuura,35.13,140.3,41.31,93,75,6.93,43.0
165,2033630,Xiongyue,40.18,122.12,27.14,45,13,10.67,27.14
166,2738381,Lata,40.16,-8.33,40.95,93,40,5.82,50.0
167,1803331,Linxia,35.6,103.21,23.83,42,0,2.93,23.83
168,3899695,Ancud,-41.87,-73.82,57.2,93,76,4.7,57.2
169,3430863,Mar del Plata,-38.0,-57.56,61.23,76,0,7.63,64.99
170,1524296,Esil,51.96,66.4,17.74,87,100,24.87,17.74
171,2365560,Kpalime,6.9,0.63,69.12,20,49,2.53,69.12
172,5044290,Saint Anthony,45.02,-93.22,27.32,74,90,6.93,28.99
173,3836669,San Rafael,-34.62,-68.33,77.09,28,0,2.57,77.09
174,2125906,Dukat,62.55,155.55,-20.34,98,100,7.0,-20.34
175,5379524,Orange,33.7,-117.77,55.36,82,75,3.36,60.01
176,1244926,Hambantota,6.12,81.12,80.6,83,40,14.99,80.6
177,2454955,Kolokani,13.57,-8.03,71.1,10,35,8.66,71.1
178,1053384,Toamasina,-18.17,49.38,73.4,94,75,6.93,73.4
179,1525798,Balkhash,46.84,74.98,3.2,84,31,2.24,3.2
180,1714733,Dingle,11.0,122.67,84.15,73,31,5.21,84.15
181,245338,Am Timan,11.03,20.28,56.32,21,36,6.35,56.32
182,3870282,Talcahuano,-36.72,-73.12,66.2,72,0,8.05,66.2
183,4004293,Ixtapa,20.7,-105.2,71.28,94,90,3.36,71.6
184,2163355,Hobart,-42.88,147.33,66.96,35,84,20.8,71.6
185,3867427,Mayor Pablo Lagerenza,-19.93,-60.77,78.64,41,0,4.5,78.64
186,2636276,Tamworth,52.63,-1.7,44.2,100,80,6.93,46.0
187,2138592,Pouembout,-21.13,164.9,84.29,57,73,11.1,84.29
188,1637001,Biak,-0.91,122.88,83.3,72,18,5.1,83.3
189,3056547,Zeliezovce,48.05,18.65,30.25,98,100,1.01,32.0
190,4470244,Havelock,34.88,-76.9,45.79,70,1,9.17,48.2
191,779622,Avanuorri,71.0,24.66,19.4,73,75,23.04,19.4
192,102318,Sayhat,26.49,50.04,49.44,62,20,17.22,51.8
193,1505965,Igrim,63.19,64.42,-13.09,99,70,2.71,-13.09
194,2438823,Tessaoua,13.76,7.99,60.35,14,30,12.91,60.35
195,2527087,Tiznit,29.58,-9.5,46.69,91,32,4.07,46.69
196,2246451,Saint-Louis,16.33,-15.0,78.8,31,40,2.24,78.8
197,2438855,Tera,14.01,0.75,68.4,9,45,11.14,68.4
198,964420,Port Elizabeth,-33.92,25.57,68.0,82,75,23.04,68.0
199,3380290,Sinnamary,5.38,-52.95,79.95,83,100,18.81,79.95
200,2137773,Vao,-22.67,167.48,77.95,79,91,15.61,77.95
201,2121025,Srednekolymsk,67.45,153.68,-23.49,92,100,2.33,-23.49
202,3911925,La Paz,-16.5,-68.15,46.4,70,20,6.93,46.4
203,5850554,Makakilo City,21.35,-158.09,76.64,78,75,8.05,80.6
204,2745087,Gemeente Wageningen,51.97,5.67,35.11,100,90,9.17,37.0
205,2110227,Butaritari,3.07,172.79,85.51,72,100,9.89,85.51
206,2077895,Alice Springs,-23.7,133.88,96.8,9,0,13.87,96.8
207,3831208,Qaanaaq,77.48,-69.36,-12.03,43,55,4.43,-12.03
208,594064,Svencionys,55.15,26.17,31.78,97,44,6.4,31.78
209,1489656,Teya,60.38,92.63,9.73,86,60,9.82,9.73
210,3421319,Nuuk,64.18,-51.72,14.0,85,100,8.05,14.0
211,371745,Kutum,14.2,24.67,39.6,42,0,5.14,39.6
212,1082243,Ambilobe,-13.2,49.05,76.28,89,100,3.74,76.28
213,1649150,Bengkulu,-3.8,102.27,87.44,58,100,2.1,87.44
214,1519691,Sarkand,45.41,79.92,27.03,98,100,7.65,27.03
215,3933104,Pangoa,-12.12,-73.0,70.65,89,28,2.01,70.65
216,2112802,Hasaki,35.73,140.83,43.23,48,75,2.24,45.0
217,1267390,Kavaratti,10.57,72.64,80.6,78,20,2.28,80.6
218,3893629,Coquimbo,-29.95,-71.34,62.6,93,0,3.36,62.6
219,5367788,Lompoc,34.64,-120.46,53.96,87,90,11.41,57.0
220,5563839,Fortuna,40.6,-124.16,56.97,87,90,9.17,59.0
221,1268814,Joshimath,30.57,79.57,29.98,42,0,8.48,29.98
222,3456642,Mozarlandia,-14.74,-50.57,72.54,95,100,6.73,72.54
223,2264557,Ponta do Sol,32.67,-17.1,54.82,71,40,6.93,57.2
224,780687,Berlevag,70.86,29.09,23.07,69,100,27.11,23.07
225,1328421,Pathein,16.78,94.73,75.15,50,41,7.74,75.15
226,3174050,Provincia di Mantova,45.17,10.78,41.99,100,75,2.24,46.0
227,5856516,'Ahuimanu,21.44,-157.84,76.5,78,75,8.05,80.6
228,2208248,Kaitangata,-46.28,169.85,68.0,66,5,10.45,68.0
229,3576994,Cockburn Town,21.46,-71.14,76.39,74,0,12.33,76.39
230,6355222,Yulara,-25.24,130.99,96.8,11,0,10.29,96.8
231,4328010,Houma,29.6,-90.72,52.88,81,90,4.43,55.4
232,884927,Mutoko,-17.4,32.23,61.63,97,46,0.94,61.63
233,2119283,Zyryanka,65.75,150.85,-25.98,91,100,5.64,-25.98
234,3663693,Jutai,-5.18,-68.9,75.83,88,81,2.68,75.83
235,2094746,Kandrian,-6.22,149.55,87.1,66,51,7.18,87.1
236,2240449,Luanda,-8.84,13.23,80.6,78,40,2.24,80.6
237,2456917,Goundam,16.41,-3.67,72.77,10,100,10.2,72.77
238,6165406,Thompson,55.74,-97.86,17.6,85,90,2.24,17.6
239,3445026,Vila Velha,-20.33,-40.29,71.6,94,75,2.24,71.6
240,3985710,Cabo San Lucas,22.89,-109.91,67.42,77,75,4.7,68.0
241,3401845,Conceicao do Araguaia,-8.26,-49.26,74.84,95,100,2.53,74.84
242,244878,Biltine,14.53,20.92,59.16,19,0,16.87,59.16
243,2281606,Sinfra,6.62,-5.92,66.2,82,23,1.77,66.2
244,1181065,Chitral,35.85,71.79,6.26,69,94,5.01,6.26
245,3421765,Nanortalik,60.14,-45.24,23.34,75,100,16.98,23.34
246,1737714,Limbang,4.75,115.0,83.1,83,75,5.82,84.2
247,2032614,Baruun-Urt,46.68,113.28,14.2,81,0,13.67,14.2
248,3354898,Okahandja,-21.98,16.92,64.24,27,0,4.7,64.4
249,470762,Vyartsilya,62.18,30.69,22.86,93,77,4.34,22.86
250,3904906,Santa Cruz de la Sierra,-17.8,-63.17,78.8,74,2,6.93,78.8
251,1797438,Zhuangyuan,37.3,120.83,37.29,54,100,11.5,37.29
252,3412093,Vestmannaeyjar,63.44,-20.27,33.46,96,100,15.32,33.46
253,352733,Mersa Matruh,31.35,27.25,42.8,87,0,6.06,42.8
254,3366880,Hermanus,-34.42,19.23,57.0,97,83,8.99,57.0
255,101312,Turaif,31.67,38.66,35.6,100,0,4.7,35.6
256,2026160,Borogontsy,62.67,131.17,-34.04,95,0,2.84,-34.04
257,2441447,Maine Soroa,13.21,12.02,58.35,39,0,12.53,58.35
258,538061,Kuybyshevo,47.81,38.91,31.62,90,100,11.21,31.62
259,3372964,Lagoa,39.05,-27.98,57.72,65,100,8.63,57.72
260,2303611,Esim,4.87,-2.24,74.59,92,53,1.61,74.59
261,3467362,Capao da Canoa,-29.75,-50.01,75.56,68,74,14.32,75.56
262,1037125,Montepuez,-13.13,39.0,68.94,98,100,1.28,68.94
263,1259385,Port Blair,11.67,92.75,77.85,70,78,13.78,77.85
264,702477,Lyubech,51.7,30.66,30.42,95,27,8.23,30.42
265,2156643,Mount Gambier,-37.83,140.77,69.8,52,90,14.99,69.8
266,2160735,Lakes Entrance,-37.88,147.98,79.84,61,63,8.01,86.0
267,3984997,San Quintin,30.48,-115.95,59.31,85,0,4.99,59.31
268,602913,Skelleftea,64.75,20.95,18.25,85,100,11.41,19.4
269,3894426,Coyhaique,-45.58,-72.07,59.0,47,5,8.05,59.0
270,5380420,Pacifica,37.61,-122.49,57.7,100,90,5.28,61.0
271,2063056,Port Augusta,-32.5,137.77,84.99,60,0,17.22,93.0
272,315621,Emirdag,39.02,31.15,30.85,50,2,5.97,30.85
273,3372472,Vila Franca do Campo,37.72,-25.43,57.2,82,40,4.7,57.2
274,3939761,Hualmay,-11.1,-77.61,74.28,71,100,5.99,74.28
275,3448596,Sao Lourenco do Sul,-31.37,-51.98,69.01,94,94,8.12,69.01
276,1855342,Nishihara,26.18,127.76,71.6,94,90,13.87,73.4
277,2013727,Vanavara,60.34,102.28,18.86,80,62,14.85,18.86
278,3163146,Andenes,69.31,16.12,24.33,58,44,21.92,24.8
279,1256436,Solapur,17.68,75.92,74.37,45,73,7.36,74.37
280,215771,Isiro,2.77,27.62,62.26,47,86,2.86,62.26
281,3443061,Chui,-33.7,-53.46,65.59,80,3,5.46,65.59
282,2178753,Kirakira,-10.45,161.92,84.58,77,3,7.16,84.58
283,1214026,Sabang,5.89,95.32,82.35,68,83,12.33,82.35
284,6167817,Torbay,47.67,-52.73,18.63,78,5,13.87,19.99
285,5767918,Pierre,44.37,-100.35,24.08,92,1,3.36,27.0
286,6316343,Alta Floresta,-9.88,-56.09,71.01,96,100,3.47,71.01
287,2985020,Conil,44.97,3.72,36.09,95,100,5.32,36.09
288,2126682,Bilibino,68.05,166.44,-3.91,89,100,5.28,-3.91
289,3698304,Chimbote,-9.09,-78.58,73.87,75,94,5.97,73.87
290,5882953,Aklavik,68.22,-135.01,-14.8,68,90,16.11,-14.8
291,3521108,Progreso,21.28,-89.67,71.28,73,5,8.05,71.6
292,340358,Dabat,12.98,37.77,46.44,37,64,1.12,46.44
293,1885823,Jiangyou,31.77,104.72,34.75,80,100,2.91,34.75
294,3448861,Sao Joao do Paraiso,-15.31,-42.01,66.92,91,100,3.02,66.92
295,739598,Sinop,41.77,34.87,41.9,52,0,6.98,41.9
296,3664980,Boa Vista,2.82,-60.67,82.4,61,95,8.05,82.4
297,6153766,Spirit River,55.78,-118.84,8.6,92,40,5.1,8.6
298,5847411,Kahului,20.89,-156.47,75.49,57,20,14.99,80.6
299,64435,Berbera,10.44,45.01,78.31,79,100,18.86,78.31
300,3466165,Cidreira,-30.18,-50.21,75.56,68,74,14.32,75.56
301,595016,Salcininkai,54.3,25.38,35.8,97,75,6.93,37.99
302,3391889,Pitimbu,-7.47,-34.81,80.6,88,20,4.7,80.6
303,935215,Saint-Philippe,-21.36,55.77,74.41,78,75,8.05,78.8
304,3625066,Zaraza,9.35,-65.32,73.67,86,100,5.84,73.67
305,893485,Chiredzi,-21.05,31.67,67.98,77,74,1.88,67.98
306,2171099,Codrington,-38.27,141.97,61.56,78,100,20.42,61.56
307,3118304,Llanes,43.42,-4.75,44.08,10,0,4.63,46.0
308,2160336,Leopold,-38.18,144.47,71.73,68,90,5.82,75.2
309,5746545,Portland,45.52,-122.68,50.32,76,90,6.93,53.6
310,4021858,Guerrero Negro,27.98,-114.06,62.11,78,0,9.37,62.11
311,3408386,Acara,-1.96,-48.2,74.68,99,97,2.04,74.68
312,3472864,Aguas Formosas,-17.08,-40.94,69.57,97,99,3.06,69.57
313,477940,Ust-Tsilma,65.44,52.15,-12.8,98,100,3.15,-12.8
314,2514651,Los Llanos de Aridane,28.66,-17.92,58.06,58,29,8.05,59.0
315,2337680,Illela,13.73,5.3,64.63,12,0,17.58,64.63
316,5392593,San Ramon,37.78,-121.98,57.67,82,75,11.41,61.0
317,1090415,Chirongui,-12.93,45.15,77.0,100,100,3.36,77.0
318,2218840,Bani Walid,31.76,13.99,63.37,20,100,10.96,63.37
319,3430443,Necochea,-38.55,-58.74,50.92,89,0,1.01,53.01
320,2194098,Ahipara,-35.17,173.17,89.01,59,94,1.99,89.01
321,2152659,Port Macquarie,-31.43,152.92,86.22,52,32,12.75,89.6
322,3374235,Sal Rei,16.18,-22.92,69.8,83,90,14.99,69.8
323,1502073,Krasnosel'kup,65.7,82.47,-6.83,98,95,9.42,-6.83
324,3175096,Laas,46.62,10.7,23.22,92,100,2.24,33.01
325,3893726,Constitucion,-35.33,-72.42,63.21,67,0,5.7,63.21
326,3108308,Tarazona,41.9,-1.73,44.46,93,90,3.36,46.4
327,1636308,Manokwari,-0.87,134.08,82.04,71,76,5.86,82.04
328,2646557,Horsham,51.06,-0.33,44.53,100,75,4.7,46.4
329,2176639,Batemans Bay,-35.72,150.18,87.31,84,0,4.0,95.0
330,5296802,Green Valley,31.85,-110.99,54.09,76,1,4.7,60.01
331,3423146,Ilulissat,69.22,-51.1,6.8,46,92,10.29,6.8
332,1489938,Tavricheskoye,54.59,73.64,15.8,85,75,17.9,15.8
333,4574324,Charleston,32.78,-79.93,46.53,70,1,6.93,48.99
334,5964250,Grand Bend,43.32,-81.75,32.49,97,90,6.93,33.8
335,5993072,Kitimat,54.05,-128.65,34.7,93,90,2.24,35.6
336,158006,Kibaya,-5.3,36.57,61.0,96,99,2.62,61.0
337,515175,Oparino,59.85,48.28,12.15,94,99,7.18,12.15
338,1263752,Mangrol,21.12,70.12,70.77,52,0,11.92,70.77
339,5735238,Klamath Falls,42.22,-121.78,41.86,92,100,5.99,43.0
340,5911745,Burns Lake,54.23,-125.75,23.99,93,0,3.83,23.99
341,2347758,Bara,10.37,10.73,55.71,25,0,7.67,55.71
342,2270385,Camacha,33.08,-16.33,57.2,82,20,6.93,57.2
343,1259552,Pipri,19.8,75.53,62.6,72,38,1.97,62.6
344,5557293,Sitka,57.05,-135.33,41.38,70,90,23.04,46.4
345,217562,Butembo,0.15,29.28,68.65,47,100,2.73,68.65
346,57000,Hobyo,5.35,48.53,77.79,81,100,10.33,77.79
347,2191562,Dunedin,-45.87,170.5,65.61,66,0,24.14,68.0
348,1651531,Ambon,-3.7,128.18,91.4,59,20,9.17,91.4
349,3441890,Departamento de Maldonado,-34.67,-54.92,64.4,82,0,8.05,64.4
350,2122090,Pevek,69.7,170.31,-9.44,96,100,0.45,-9.44
351,3428068,San Vicente,-26.62,-54.13,65.79,65,0,2.89,65.79
352,2516860,Guia de Isora,28.21,-16.78,57.58,51,40,6.93,61.0
353,2654970,Brae,60.4,-1.35,46.4,87,100,20.8,46.4
354,1710519,Isabela,6.71,121.97,87.8,70,20,5.82,87.8
355,1809003,Haizhou,34.58,119.13,40.69,65,100,11.65,40.69
356,2037886,Dandong,40.13,124.39,30.0,41,19,11.88,30.0
357,2014927,Tulun,54.56,100.58,17.69,83,100,4.23,17.69
358,2986626,Plouzane,48.38,-4.62,44.19,100,90,5.82,46.4
359,2236967,Soyo,-6.13,12.37,80.44,83,98,9.75,80.44
360,293842,Kiryat Gat,31.61,34.76,40.33,86,0,1.63,44.01
361,1274862,Challakere,14.32,76.65,72.57,32,12,6.06,72.57
362,2400547,Gamba,-2.65,10.0,78.03,85,60,2.08,78.03
363,1650434,Bambanglipuro,-7.95,110.28,85.82,65,2,8.81,85.82
364,3455756,Osvaldo Cruz,-21.8,-50.88,73.4,69,0,3.36,73.4
365,1505529,Irbeyskoye,55.64,95.45,26.37,85,100,5.39,26.37
366,2021041,Kyra,49.58,111.98,7.29,71,0,2.35,7.29
367,6173220,Valleyview,55.07,-117.29,26.6,87,0,3.33,26.6
368,1337610,Thinadhoo,0.53,72.93,82.31,80,100,14.03,82.31
369,2338242,Ikom,5.97,8.71,64.44,23,100,1.07,64.44
370,108410,Riyadh,24.69,46.72,41.0,60,0,21.92,41.0
371,3573374,The Valley,18.22,-63.06,78.3,78,75,1.12,79.0
372,5924351,Clyde River,70.47,-68.59,-25.6,67,90,10.29,-25.6
373,2729907,Longyearbyen,78.22,15.64,-2.2,70,7,2.24,-2.2
374,6182212,Williams Lake,52.14,-122.14,32.0,91,20,3.36,32.0
375,5768244,Rapid Valley,44.06,-103.15,32.11,51,1,10.2,37.4
376,699811,Nova Odesa,47.31,31.79,34.54,78,100,6.42,34.54
377,5391791,San Clemente,33.43,-117.61,54.75,93,90,1.43,57.99
378,2562247,Marsaxlokk,35.84,14.54,57.36,100,20,8.05,57.99
379,2367990,Aneho,6.23,1.6,69.8,68,44,4.7,69.8
380,6111696,Port-Cartier,50.03,-66.87,15.8,72,75,6.93,15.8
381,3036418,Aubenas,44.62,4.39,47.01,93,90,1.12,48.0
382,118063,Sabzevar,36.21,57.68,32.16,70,15,5.32,32.16
383,86049,Jalu,29.03,21.55,50.99,46,43,9.4,50.99
384,5742974,North Bend,43.41,-124.22,54.82,100,90,5.82,55.99
385,3386213,Touros,-5.2,-35.46,80.6,88,75,3.36,80.6
386,2088659,Panguna,-6.32,155.48,85.44,56,0,6.98,85.44
387,100926,Umm Lajj,25.02,37.27,48.34,32,0,12.75,48.34
388,1799686,Tongzi,28.78,105.09,49.15,64,0,2.91,49.15
389,6111862,Port Hardy,50.7,-127.42,46.4,81,90,23.04,46.4
390,5954718,Flin Flon,54.77,-101.86,18.68,96,100,5.66,18.68
391,455520,Skrunda,56.68,22.02,41.0,93,26,13.87,41.0
392,2126199,Cherskiy,68.75,161.3,-17.93,96,100,2.71,-17.93
393,5354943,Half Moon Bay,37.46,-122.43,57.65,100,90,5.28,61.0
394,1263911,Mandalgarh,25.2,75.1,60.73,38,0,2.86,60.73
395,1631905,Payakumbuh,-0.22,100.63,76.73,82,87,3.02,76.73
396,1502257,Kozhevnikovo,56.26,83.97,18.37,82,99,13.0,19.0
397,1568770,Quang Ngai,15.12,108.8,77.09,78,88,5.41,77.09
398,3389822,Salinopolis,-0.61,-47.36,82.81,81,100,12.39,82.81
399,341742,Bonga,7.28,36.23,55.78,67,100,1.3,55.78
400,236901,Ouadda,8.08,22.4,61.14,18,37,5.75,61.14
401,2098329,Daru,-9.08,143.21,96.6,46,36,2.82,96.6
402,3398856,Grajau,-5.82,-46.14,74.64,88,100,2.17,74.64
403,6324729,Halifax,44.65,-63.57,30.13,92,90,14.99,32.0
404,5861897,Fairbanks,64.84,-147.72,-17.66,74,1,6.04,-9.99
405,1521230,Makinsk,52.63,70.42,11.73,89,100,22.06,11.73
406,7671223,Kloulklubed,7.04,134.26,84.2,79,75,11.41,84.2
407,2281120,Tabou,4.42,-7.35,76.82,96,26,0.87,76.82
408,3896924,Canete,-37.8,-73.4,60.26,90,0,11.79,60.26
409,542788,Krasnaya Gora,53.0,31.6,32.0,94,75,11.18,32.0
410,3437681,Natalio,-26.72,-55.08,67.66,65,0,0.81,67.66
411,3663475,Maraa,-1.83,-65.37,76.23,92,76,2.66,76.23
412,934479,Grand Gaube,-20.01,57.66,78.75,83,75,13.87,80.01
413,3457819,Marataizes,-21.04,-40.82,69.75,95,100,4.23,69.75
414,3114567,Palafrugell,41.92,3.16,45.86,100,20,1.66,54.0
415,1529660,Aksu,41.12,80.26,24.3,71,100,1.88,24.3
416,3836277,Santa Fe,-31.63,-60.7,82.99,53,0,2.24,82.99
417,64013,Bosaso,11.28,49.18,76.39,78,26,3.69,76.39
418,64814,Bandarbeyla,9.49,50.81,78.28,81,52,20.22,78.28
419,776069,Bialystok,53.13,23.15,36.0,92,78,8.14,37.99
420,4164601,Miramar,25.99,-80.23,60.55,87,1,3.36,64.99
421,2136825,Isangel,-19.55,169.27,80.6,94,75,6.93,80.6
422,4560349,Philadelphia,39.95,-75.16,38.88,86,1,3.36,41.0
423,6254930,Palestine,31.92,35.2,40.42,86,0,2.93,44.01
424,4398730,Moberly,39.42,-92.44,26.37,86,90,4.0,30.99
425,1215502,Banda Aceh,5.56,95.32,83.68,56,75,5.64,83.68
426,2027296,Aykhal,66.0,111.5,-25.6,74,100,6.71,-25.6
427,1540711,Muravlenko,63.79,74.52,-0.24,95,88,9.53,-0.24
428,2447513,Arlit,18.74,7.39,64.99,11,0,8.28,64.99
429,3374083,Bathsheba,13.22,-59.52,75.2,88,40,2.24,75.2
430,1733697,Semporna,4.48,118.61,89.6,66,75,3.36,89.6
431,50672,Wanlaweyn,2.62,44.89,77.76,73,100,9.71,77.76
432,5110365,Broome,42.25,-75.83,33.13,99,90,6.93,35.01
433,286621,Salalah,17.02,54.09,77.0,78,75,3.36,77.0
434,2035707,Mujiayingzi,42.12,118.78,27.46,34,0,3.53,27.46
435,377472,Bentiu,9.23,29.83,65.41,14,29,6.78,65.41
436,189741,Lamu,-2.27,40.9,81.45,86,100,9.01,81.45
437,2173911,Broken Hill,-31.95,141.43,89.6,18,0,13.87,89.6
438,1517323,Zhanakorgan,43.91,67.25,18.07,87,94,12.55,18.07
439,1805733,Jinchang,38.5,102.17,23.67,44,10,5.32,23.67
440,4723165,Robinsonville,31.47,-97.11,57.36,87,90,4.7,60.01
441,5088438,Laconia,43.53,-71.47,36.54,100,90,23.04,42.01
442,964406,Port Shepstone,-30.74,30.45,69.04,73,2,3.31,69.04
443,1256572,Sherghati,24.57,84.78,53.6,81,0,5.3,53.6
444,1733502,Ranau,5.95,116.66,89.6,75,75,6.93,89.6
445,1631637,Pemangkat,1.17,108.97,83.23,73,98,4.05,83.23
446,3134327,Tonstad,58.66,6.72,42.31,100,75,9.17,44.01
447,3464343,Eldorado,-23.79,-54.28,70.0,77,0,1.14,70.0
448,3860259,Cordoba,-31.41,-64.18,72.97,64,0,5.82,79.0
449,3408368,Acarau,-2.89,-40.12,77.0,95,90,4.54,77.0
450,1242110,Kalmunai,7.42,81.82,80.01,70,88,14.27,80.01
451,122698,Naqadeh,36.96,45.39,12.96,73,0,3.44,12.96
452,2013392,Vilyuysk,63.76,121.62,-27.17,96,93,10.42,-27.17
453,1167821,Pishin,30.58,67.0,36.97,75,0,2.35,36.97
454,2121385,Severo-Kuril'sk,50.68,156.12,18.86,92,100,40.24,18.86
455,2524881,Crotone,39.09,17.12,54.61,88,100,7.11,54.61
456,3520161,Sabancuy,18.97,-91.18,70.57,86,0,4.07,70.57
457,1272140,Dwarka,22.24,68.97,71.55,70,0,9.46,71.55
458,296852,Erzin,36.96,36.2,42.8,52,75,4.7,42.8
459,3838859,Rio Gallegos,-51.62,-69.22,50.0,53,0,20.8,50.0
460,3456137,Nova Olimpia,-14.8,-57.29,78.76,72,100,3.18,78.76
461,139223,Chalus,36.66,51.42,35.6,49,0,6.11,35.6
462,3421193,Paamiut,61.99,-49.67,18.12,64,86,23.8,18.12
463,4839416,New London,41.36,-72.1,45.41,100,90,8.05,50.0
464,2177069,Ballina,-28.87,153.57,85.19,69,90,16.11,88.0
465,475619,Verkhnechusovskiye Gorodki,58.17,57.11,15.73,96,100,4.16,15.73
466,1688696,San Policarpo,12.18,125.51,81.01,84,2,9.1,81.01
467,1657818,Champasak,14.75,106.0,78.8,74,40,13.87,78.8
468,3581194,San Ignacio,17.16,-89.07,70.81,94,20,4.7,71.6
469,1791779,Wanning,18.8,110.4,62.89,86,100,11.99,62.89
470,2068110,Kununurra,-15.77,128.73,93.2,56,66,5.82,93.2
471,2501152,Constantine,36.37,6.61,39.2,57,75,2.24,39.2
472,3489440,Morant Bay,17.88,-76.41,74.71,78,75,8.05,77.0
473,2139521,Noumea,-22.28,166.46,93.2,46,40,23.04,93.2
474,3667158,Tierralta,8.17,-76.06,71.89,96,100,3.47,71.89
475,550949,Kesova Gora,57.58,37.29,26.4,86,99,14.16,26.4
476,2158767,Mareeba,-17.0,145.43,84.16,79,90,5.82,87.01
477,1529376,Korla,41.76,86.15,15.31,46,0,1.63,15.31
478,2122262,Palana,59.12,159.97,31.35,75,100,31.36,31.35
479,1517637,Ushtobe,45.25,77.98,26.76,97,100,5.61,26.76
480,1487860,Vagay,57.94,69.02,4.89,97,100,5.39,4.89
481,1796236,Shanghai,31.22,121.46,49.46,93,90,13.42,53.01
482,3406318,Barra do Corda,-5.5,-45.25,76.5,89,100,2.3,76.5
483,3466980,Caravelas,-17.71,-39.25,79.09,84,100,19.69,79.09
484,4031742,Egvekinot,66.32,-179.17,-5.75,89,67,4.85,-5.75
485,2186111,Ngunguru,-35.62,174.5,76.59,74,55,7.0,80.01
486,1487599,Verkh-Chebula,56.03,87.62,14.36,87,86,13.38,14.36
487,3629710,Puerto Ayacucho,5.66,-67.62,77.61,67,69,1.12,77.61
488,2725123,Arvika,59.66,12.59,42.85,87,100,16.11,43.0
489,1606350,Sawang Daen Din,17.48,103.46,79.79,59,100,10.0,79.79
490,88533,Awjilah,29.11,21.29,50.99,46,43,9.4,50.99
491,3698359,Chicama,-7.84,-79.15,71.6,94,75,5.82,71.6
492,162627,Yabrud,33.97,36.66,28.99,29,0,2.24,28.99
493,6145890,Shelburne,44.08,-80.2,33.49,93,90,8.05,35.6
494,3416888,Grindavik,63.84,-22.43,35.26,72,90,17.22,37.4
495,1735089,Parit Buntar,5.13,100.49,86.9,58,20,10.29,87.8
496,3440777,Rocha,-34.48,-54.33,60.19,78,0,4.52,60.19
497,368246,Raja,8.46,25.68,59.59,18,88,6.71,59.59
498,2450173,Taoudenni,22.68,-3.98,67.41,26,10,4.63,67.41
499,3374210,Sao Filipe,14.9,-24.5,73.94,63,21,18.75,73.94
500,2036973,Heihe,50.24,127.49,8.6,50,0,2.24,8.6
501,3354071,Oranjemund,-28.55,16.43,65.26,81,97,10.2,65.26
502,2123836,Lazarev,52.23,141.51,-4.18,77,0,8.05,-4.18
503,496285,Severodvinsk,64.56,39.83,-11.2,83,40,2.42,-11.2
504,4946620,Palmer,42.16,-72.33,39.63,93,90,4.7,44.01
505,358620,Safaga,26.73,33.94,51.8,50,0,9.17,51.8
506,2395635,Allada,6.67,2.15,71.6,73,18,4.7,71.6
507,3393471,Oriximina,-1.77,-55.87,78.57,83,100,5.59,78.57
508,311044,Izmir,38.46,27.09,46.35,69,40,3.36,53.01
509,866062,Iskateley,67.68,53.15,-9.47,100,100,6.96,-9.47
510,6322184,Caraguatatuba,-23.63,-45.49,64.4,88,33,2.66,64.4
511,2335614,Kagoro,9.6,8.38,60.78,17,53,7.02,60.78
512,3382160,Cayenne,4.93,-52.33,75.2,94,90,3.36,75.2
513,1337605,Mahibadhoo,3.78,72.97,81.25,77,100,11.9,81.25
514,924206,Phalombe,-15.81,35.65,62.98,92,0,2.37,62.98
515,553766,Kamenka,51.32,42.77,30.0,84,3,7.0,30.0
516,4036284,Alofi,-19.06,-169.92,84.2,79,22,6.93,84.2
517,6096551,Pangnirtung,66.15,-65.71,-36.89,99,100,2.98,-36.89
518,2392087,Porto-Novo,6.5,2.6,71.6,73,21,4.7,71.6
519,3135728,Straumen,63.87,11.3,42.91,81,75,23.04,46.99
520,2643044,Margate,51.38,1.39,45.5,93,75,10.29,46.4
521,1000543,Graaff-Reinet,-32.25,24.53,64.0,89,2,1.01,64.0
522,281133,Gaza,31.5,34.47,40.75,86,0,4.32,44.01
523,1185270,Bandarban,22.2,92.23,60.8,87,0,3.2,60.8
524,3948613,Acari,-15.43,-74.62,67.23,88,100,3.44,67.23
525,6542092,Anzio,41.49,12.62,47.14,87,23,4.7,51.01
526,3879429,Monte Patria,-30.69,-70.95,64.33,70,36,0.25,64.33
527,2122574,Ola,59.58,151.28,-3.1,88,100,15.46,-3.1
528,2459775,Bougouni,11.42,-7.48,69.12,11,81,3.8,69.12
529,3354178,Ongandjera,-17.88,15.07,73.74,33,41,10.42,73.74
530,5117926,Fredonia,42.44,-79.33,33.42,86,90,6.93,36.0
531,5895424,Bay Roberts,47.6,-53.26,18.64,78,5,13.87,19.99
532,6690296,Saint-Joseph,-21.37,55.62,74.57,78,75,8.05,78.8
533,3936456,Lima,-12.04,-77.03,73.4,88,100,14.99,73.4
534,1283285,Jumla,29.27,82.18,30.34,47,80,3.09,30.34
535,4013593,Cocorit,27.58,-109.97,60.57,72,0,3.27,60.57
536,3393692,Itarema,-2.92,-39.92,77.0,95,90,4.54,77.0
537,1518139,Tobol,52.68,62.58,22.39,92,100,22.08,22.39
538,2090021,Namatanai,-3.67,152.43,85.87,71,67,12.68,85.87
539,905395,Mufulira,-12.55,28.24,62.65,97,33,3.38,62.65
540,3517970,Pochutla,15.74,-96.47,78.8,74,20,6.38,78.8
541,2122614,Okha,53.57,142.95,-9.99,85,0,19.69,-9.99
542,2177233,Bairnsdale,-37.83,147.62,79.88,61,34,8.01,86.0
543,5859699,College,64.86,-147.8,-17.27,74,1,4.59,-9.99
544,196742,Homa Bay,-0.53,34.46,69.8,88,75,6.93,69.8
545,1492160,Shipunovo,52.16,82.22,4.53,92,56,9.44,4.53
546,3761194,Miraflores,19.22,-98.81,60.37,48,75,8.05,60.8
547,3355672,Luderitz,-26.65,15.16,68.0,77,0,16.11,68.0
548,3691954,Sechura,-5.56,-80.82,74.41,86,100,9.78,74.41
549,1024696,Dondo,-19.61,34.74,73.4,94,20,6.93,73.4
550,6149996,Smithers,54.78,-127.17,33.8,80,40,5.82,33.8
551,1152227,Mae Chan,20.15,99.85,66.56,67,0,4.7,69.01
552,3100946,Czestochowa,50.8,19.12,27.99,95,100,3.98,28.99
553,3628473,San Cristobal,7.77,-72.22,77.0,83,40,2.24,77.0
554,3397851,Itupiranga,-5.13,-49.33,75.2,100,40,5.82,75.2
